{
	"id": "mcd-station-names",
	"type": "symbol",
	"metadata":{
		"elements": [],
		"parentLayers": ["mcd-stations"],
		"childLayers": [],
		"layerName": "Название станции",
		"levelOrder": 1
	},
	"source": {
		"type": "geojson",
		"data": {
			"type": "FeatureCollection",
			"features": [
{
  "type": "Feature",
  "properties": {
    "name": "Лобня",
    "year": 2009,
    "ownerLayer": "mcd",
    "ownerElement": "mcd1"
  },
  "geometry": {
    "coordinates": [
      37.484863,
      56.013513
    ],
    "type": "Point"
  }
},
{
  "type": "Feature",
  "properties": {
    "name": "Шереметьевская",
    "year": 2009,
    "ownerLayer": "mcd",
    "ownerElement": "mcd1"
  },
  "geometry": {
    "coordinates": [
      37.498892,
      55.983734
    ],
    "type": "Point"
  }
},
{
  "type": "Feature",
  "properties": {
    "name": "Хлебниково",
    "year": 2009,
    "ownerLayer": "mcd",
    "ownerElement": "mcd1"
  },
  "geometry": {
    "coordinates": [
      37.504529,
      55.970971
    ],
    "type": "Point"
  }
},
{
  "type": "Feature",
  "properties": {
    "name": "Водники",
    "year": 2009,
    "ownerLayer": "mcd",
    "ownerElement": "mcd1"
  },
  "geometry": {
    "coordinates": [
      37.512379,
      55.952672
    ],
    "type": "Point"
  }
},
{
  "type": "Feature",
  "properties": {
    "name": "Долгопрудный",
    "year": 2009,
    "ownerLayer": "mcd",
    "ownerElement": "mcd1"
  },
  "geometry": {
    "coordinates": [
      37.520534,
      55.938992
    ],
    "type": "Point"
  }
},
{
  "type": "Feature",
  "properties": {
    "name": "Новодачная",
    "year": 2009,
    "ownerLayer": "mcd",
    "ownerElement": "mcd1"
  },
  "geometry": {
    "coordinates": [
      37.528005,
      55.924303
    ],
    "type": "Point"
  }
},
{
  "type": "Feature",
  "properties": {
    "name": "Марк",
    "year": 2009,
    "ownerLayer": "mcd",
    "ownerElement": "mcd1"
  },
  "geometry": {
    "coordinates": [
      37.538258,
      55.904504
    ],
    "type": "Point"
  }
},
{
  "type": "Feature",
  "properties": {
    "name": "Лиаонозово",
    "year": 2009,
    "ownerLayer": "mcd",
    "ownerElement": "mcd1"
  },
  "geometry": {
    "coordinates": [
      37.55331,
      55.897324
    ],
    "type": "Point"
  }
},
{
  "type": "Feature",
  "properties": {
    "name": "Бескудниково",
    "year": 2009,
    "ownerLayer": "mcd",
    "ownerElement": "mcd1"
  },
  "geometry": {
    "coordinates": [
      37.567753,
      55.882775
    ],
    "type": "Point"
  }
},
{
  "type": "Feature",
  "properties": {
    "name": "Дегунино",
    "year": 2009,
    "ownerLayer": "mcd",
    "ownerElement": "mcd1"
  },
  "geometry": {
    "coordinates": [
      37.573191,
      55.865831
    ],
    "type": "Point"
  }
},
{
  "type": "Feature",
  "properties": {
    "name": "Окружная",
    "year": 2009,
    "ownerLayer": "mcd",
    "ownerElement": "mcd1"
  },
  "geometry": {
    "coordinates": [
      37.574459,
      55.846563
    ],
    "type": "Point"
  }
},
{
  "type": "Feature",
  "properties": {
    "name": "Петровско-Разумовская",
    "year": 2009,
    "ownerLayer": "mcd",
    "ownerElement": "mcd1"
  },
  "geometry": {
    "coordinates": [
      37.574826,
      55.83368
    ],
    "type": "Point"
  }
},
{
  "type": "Feature",
  "properties": {
    "name": "Тимирязевская",
    "year": 2009,
    "ownerLayer": "mcd",
    "ownerElement": "mcd1"
  },
  "geometry": {
    "coordinates": [
      37.576061,
      55.819163
    ],
    "type": "Point"
  }
},
{
  "type": "Feature",
  "properties": {
    "name": "Дмитровская",
    "year": 2009,
    "ownerLayer": "mcd",
    "ownerElement": "mcd1"
  },
  "geometry": {
    "coordinates": [
      37.582158,
      55.810037
    ],
    "type": "Point"
  }
},
{
  "geometry": {
    "coordinates": [
      37.58919930842828,
      55.79543827183505
    ],
    "type": "Point"
  },
  "type": "Feature",
  "properties": {
    "name": "Савеловский вокзал",
    "year": 2009,
    "ownerLayer": "mcd",
    "ownerElement": "mcd1"
  }
},
{
  "geometry": {
    "coordinates": [
      37.5802713986445,
      55.776822557328586
    ],
    "type": "Point"
  },
  "type": "Feature",
  "properties": {
    "name": "Белорусский вокзал",
    "year": 2009,
    "ownerLayer": "mcd",
    "ownerElement": "mcd1"
  }
},
{
  "geometry": {
    "coordinates": [
      37.55079518713072,
      55.77324391647156
    ],
    "type": "Point"
  },
  "type": "Feature",
  "properties": {
    "name": "Беговая",
    "year": 2009,
    "ownerLayer": "mcd",
    "ownerElement": "mcd1"
  }
},
{
  "geometry": {
    "coordinates": [
      37.53171821239431,
      55.75415181039833
    ],
    "type": "Point"
  },
  "type": "Feature",
  "properties": {
    "name": "Тестовская",
    "year": 2009,
    "ownerLayer": "mcd",
    "ownerElement": "mcd1"
  }
},
{
  "geometry": {
    "coordinates": [
      37.514713891566174,
      55.7440519597142
    ],
    "type": "Point"
  },
  "type": "Feature",
  "properties": {
    "name": "Фили",
    "year": 2009,
    "ownerLayer": "mcd",
    "ownerElement": "mcd1"
  }
},
{
  "geometry": {
    "coordinates": [
      37.47065192272862,
      55.730043577827416
    ],
    "type": "Point"
  },
  "type": "Feature",
  "properties": {
    "name": "Славянский бульвар",
    "year": 2009,
    "ownerLayer": "mcd",
    "ownerElement": "mcd1"
  }
},
{
  "geometry": {
    "coordinates": [
      37.44989631733458,
      55.72685292500205
    ],
    "type": "Point"
  },
  "type": "Feature",
  "properties": {
    "name": "Кунцево",
    "year": 2009,
    "ownerLayer": "mcd",
    "ownerElement": "mcd1"
  }
},
{
  "geometry": {
    "coordinates": [
      37.413551260601224,
      55.72696026589139
    ],
    "type": "Point"
  },
  "type": "Feature",
  "properties": {
    "name": "Рабочик поселок",
    "year": 2009,
    "ownerLayer": "mcd",
    "ownerElement": "mcd1"
  }
},
{
  "geometry": {
    "coordinates": [
      37.3974095831511,
      55.72370689040207
    ],
    "type": "Point"
  },
  "type": "Feature",
  "properties": {
    "name": "Сетунь",
    "year": 2009,
    "ownerLayer": "mcd",
    "ownerElement": "mcd1"
  }
},
{
  "geometry": {
    "coordinates": [
      37.37531261855048,
      55.71589306438645
    ],
    "type": "Point"
  },
  "type": "Feature",
  "properties": {
    "name": "Немчиновка",
    "year": 2009,
    "ownerLayer": "mcd",
    "ownerElement": "mcd1"
  }
},
{
  "geometry": {
    "coordinates": [
      37.3371459988702,
      55.69610144407221
    ],
    "type": "Point"
  },
  "type": "Feature",
  "properties": {
    "name": "Соколово",
    "year": 2009,
    "ownerLayer": "mcd",
    "ownerElement": "mcd1"
  }
},
{
  "geometry": {
    "coordinates": [
      37.31466662437413,
      55.68257257155088
    ],
    "type": "Point"
  },
  "type": "Feature",
  "properties": {
    "name": "Баковка",
    "year": 2009,
    "ownerLayer": "mcd",
    "ownerElement": "mcd1"
  }
},
{
  "geometry": {
    "coordinates": [
      37.28181691120727,
      55.67199469677965
    ],
    "type": "Point"
  },
  "type": "Feature",
  "properties": {
    "name": "Одинцово",
    "year": 2009,
    "ownerLayer": "mcd",
    "ownerElement": "mcd1"
  }
}
			]
		}
	},
	"layout": {
		"text-field": { "type": "identity", "property": "name" },
		"text-font": ["Open Sans Semibold", "Arial Unicode MS Bold"],
		"text-offset": [0, 0.6],
		"text-anchor": "top"
	}
}